[
  {
    "id": "hoh-river",
    "name": "Hoh River",
    "region": "Olympic Peninsula",
    "county": "Jefferson",
    "tributaryOf": null,
    "latitude": 47.7549,
    "longitude": -124.0158,
    "wdfwCRCCode": "350",
    "description": "Wild steelhead destination on the Olympic Peninsula. World-class winter steelhead fishery."
  },
  {
    "id": "sol-duc-river",
    "name": "Sol Duc River",
    "region": "Olympic Peninsula",
    "county": "Clallam",
    "tributaryOf": "Quillayute River",
    "latitude": 48.0499,
    "longitude": -124.0294,
    "wdfwCRCCode": "406",
    "description": "Prime steelhead water in Clallam County. Peak guide activity in February-March."
  },
  {
    "id": "bogachiel-river",
    "name": "Bogachiel River",
    "region": "Olympic Peninsula",
    "county": "Clallam",
    "tributaryOf": "Quillayute River",
    "latitude": 47.9185,
    "longitude": -124.2047,
    "wdfwCRCCode": "398",
    "description": "Excellent winter steelhead river on the Olympic Peninsula."
  },
  {
    "id": "calawah-river",
    "name": "Calawah River",
    "region": "Olympic Peninsula",
    "county": "Clallam",
    "tributaryOf": "Bogachiel River",
    "latitude": 47.9600,
    "longitude": -124.1200,
    "wdfwCRCCode": "400",
    "description": "Tributary to the Bogachiel, good steelhead and summer cutthroat."
  },
  {
    "id": "hoh-south-fork",
    "name": "Hoh River, South Fork",
    "region": "Olympic Peninsula",
    "county": "Jefferson",
    "tributaryOf": "Hoh River",
    "latitude": 47.7000,
    "longitude": -123.9500,
    "wdfwCRCCode": "352",
    "description": "South Fork of the Hoh with selective gear rules."
  },
  {
    "id": "queets-river",
    "name": "Queets River",
    "region": "Olympic Peninsula",
    "county": "Jefferson",
    "tributaryOf": null,
    "latitude": 47.5350,
    "longitude": -124.2640,
    "wdfwCRCCode": "396",
    "description": "Remote Olympic Peninsula steelhead river."
  },
  {
    "id": "quinault-river",
    "name": "Quinault River",
    "region": "Olympic Peninsula",
    "county": "Grays Harbor",
    "tributaryOf": null,
    "latitude": 47.4690,
    "longitude": -123.8600,
    "wdfwCRCCode": "408",
    "description": "Quinault Nation river with tribal fishery. Wild steelhead."
  },
  {
    "id": "humptulips-river",
    "name": "Humptulips River",
    "region": "Coast – Grays Harbor",
    "county": "Grays Harbor",
    "tributaryOf": null,
    "latitude": 47.2340,
    "longitude": -123.9500,
    "wdfwCRCCode": "358",
    "description": "Coastal river known for winter steelhead and coho salmon."
  },
  {
    "id": "chehalis-river",
    "name": "Chehalis River",
    "region": "Coast – Grays Harbor",
    "county": "Grays Harbor",
    "tributaryOf": null,
    "latitude": 46.9560,
    "longitude": -123.4890,
    "wdfwCRCCode": "317",
    "description": "Major coastal river system. Strong coho run in fall and winter steelhead."
  },
  {
    "id": "wynoochee-river",
    "name": "Wynoochee River",
    "region": "Coast – Grays Harbor",
    "county": "Grays Harbor",
    "tributaryOf": "Chehalis River",
    "latitude": 47.1490,
    "longitude": -123.6520,
    "wdfwCRCCode": "337",
    "description": "Tributary to the Chehalis. Winter steelhead opportunity."
  },
  {
    "id": "satsop-river",
    "name": "Satsop River",
    "region": "Coast – Grays Harbor",
    "county": "Grays Harbor",
    "tributaryOf": "Chehalis River",
    "latitude": 47.0370,
    "longitude": -123.4600,
    "wdfwCRCCode": "330",
    "description": "East Fork and West Fork of the Satsop feed the Chehalis."
  },
  {
    "id": "willapa-river",
    "name": "Willapa River",
    "region": "Coast – Pacific County",
    "county": "Pacific",
    "tributaryOf": null,
    "latitude": 46.6320,
    "longitude": -123.8400,
    "wdfwCRCCode": "424",
    "description": "Coastal river in Pacific County. Summer steelhead and coho."
  },
  {
    "id": "naselle-river",
    "name": "Naselle River",
    "region": "Coast – Pacific County",
    "county": "Pacific",
    "tributaryOf": null,
    "latitude": 46.3820,
    "longitude": -123.8200,
    "wdfwCRCCode": "375",
    "description": "Pacific County coastal river with steelhead and coho."
  },
  {
    "id": "north-river",
    "name": "North River",
    "region": "Coast – Pacific County",
    "county": "Pacific",
    "tributaryOf": null,
    "latitude": 46.5550,
    "longitude": -123.7100,
    "wdfwCRCCode": "382",
    "description": "Small coastal river with winter steelhead."
  },
  {
    "id": "cowlitz-river",
    "name": "Cowlitz River",
    "region": "Southwest WA – Columbia Tributaries",
    "county": "Lewis/Cowlitz",
    "tributaryOf": "Columbia River",
    "latitude": 46.1060,
    "longitude": -122.9050,
    "wdfwCRCCode": "561",
    "description": "Premier steelhead river in SW Washington. High guide activity year-round. Both summer and winter runs."
  },
  {
    "id": "toutle-river-north",
    "name": "Toutle River, North Fork",
    "region": "Southwest WA – Columbia Tributaries",
    "county": "Cowlitz",
    "tributaryOf": "Cowlitz River",
    "latitude": 46.2670,
    "longitude": -122.5300,
    "wdfwCRCCode": "575",
    "description": "North Fork of the Toutle below Spirit Lake."
  },
  {
    "id": "toutle-river-south",
    "name": "Toutle River, South Fork",
    "region": "Southwest WA – Columbia Tributaries",
    "county": "Cowlitz",
    "tributaryOf": "Cowlitz River",
    "latitude": 46.2480,
    "longitude": -122.6900,
    "wdfwCRCCode": "577",
    "description": "South Fork Toutle — summer steelhead fishery."
  },
  {
    "id": "kalama-river",
    "name": "Kalama River",
    "region": "Southwest WA – Columbia Tributaries",
    "county": "Cowlitz",
    "tributaryOf": "Columbia River",
    "latitude": 45.9810,
    "longitude": -122.7560,
    "wdfwCRCCode": "604",
    "description": "Famous fly-only section above Kalama Falls Hatchery. Both summer and winter steelhead."
  },
  {
    "id": "lewis-river-north",
    "name": "Lewis River, North Fork",
    "region": "Southwest WA – Columbia Tributaries",
    "county": "Clark/Cowlitz",
    "tributaryOf": "Lewis River",
    "latitude": 46.0730,
    "longitude": -122.3400,
    "wdfwCRCCode": "615",
    "description": "North Fork Lewis River — strong summer steelhead run."
  },
  {
    "id": "lewis-river-east",
    "name": "Lewis River (below East Fork)",
    "region": "Southwest WA – Columbia Tributaries",
    "county": "Clark",
    "tributaryOf": "Columbia River",
    "latitude": 45.8580,
    "longitude": -122.4800,
    "wdfwCRCCode": "611",
    "description": "Lower Lewis River, coho and steelhead."
  },
  {
    "id": "washougal-river",
    "name": "Washougal River",
    "region": "Southwest WA – Columbia Tributaries",
    "county": "Clark/Skamania",
    "tributaryOf": "Columbia River",
    "latitude": 45.5900,
    "longitude": -122.2800,
    "wdfwCRCCode": "668",
    "description": "Wild winter steelhead river near Vancouver."
  },
  {
    "id": "elochoman-river",
    "name": "Elochoman River",
    "region": "Southwest WA – Columbia Tributaries",
    "county": "Wahkiakum",
    "tributaryOf": "Columbia River",
    "latitude": 46.2100,
    "longitude": -123.3900,
    "wdfwCRCCode": "584",
    "description": "Small Columbia tributary in Wahkiakum County. Winter steelhead."
  },
  {
    "id": "skykomish-river",
    "name": "Skykomish River",
    "region": "Puget Sound – Snohomish System",
    "county": "Snohomish",
    "tributaryOf": "Snohomish River",
    "latitude": 47.8540,
    "longitude": -121.6900,
    "wdfwCRCCode": "844",
    "description": "Major Puget Sound steelhead and salmon river. High catch rates for winter steelhead and coho."
  },
  {
    "id": "snohomish-river",
    "name": "Snohomish River",
    "region": "Puget Sound – Snohomish System",
    "county": "Snohomish",
    "tributaryOf": null,
    "latitude": 47.9200,
    "longitude": -122.1100,
    "wdfwCRCCode": "850",
    "description": "Lower Snohomish — coho, chum, and steelhead."
  },
  {
    "id": "snoqualmie-river",
    "name": "Snoqualmie River",
    "region": "Puget Sound – Snohomish System",
    "county": "King/Snohomish",
    "tributaryOf": "Snohomish River",
    "latitude": 47.5270,
    "longitude": -121.8360,
    "wdfwCRCCode": "852",
    "description": "Winter steelhead and coho salmon. Accessible from many points."
  },
  {
    "id": "tokul-creek",
    "name": "Tokul Creek",
    "region": "Puget Sound – Snohomish System",
    "county": "King",
    "tributaryOf": "Snoqualmie River",
    "latitude": 47.5470,
    "longitude": -121.9100,
    "wdfwCRCCode": "856",
    "description": "Winter steelhead tributary to the Snoqualmie near Fall City."
  },
  {
    "id": "wallace-river",
    "name": "Wallace River",
    "region": "Puget Sound – Snohomish System",
    "county": "Snohomish",
    "tributaryOf": "Skykomish River",
    "latitude": 47.8680,
    "longitude": -121.7300,
    "wdfwCRCCode": "860",
    "description": "Tributary to the Skykomish with winter steelhead access."
  },
  {
    "id": "stillaguamish-river",
    "name": "Stillaguamish River",
    "region": "Puget Sound – Stillaguamish System",
    "county": "Snohomish",
    "tributaryOf": null,
    "latitude": 48.1900,
    "longitude": -122.2300,
    "wdfwCRCCode": "876",
    "description": "Puget Sound steelhead river. Night closure in summer."
  },
  {
    "id": "stillaguamish-north",
    "name": "Stillaguamish River, North Fork",
    "region": "Puget Sound – Stillaguamish System",
    "county": "Snohomish",
    "tributaryOf": "Stillaguamish River",
    "latitude": 48.2300,
    "longitude": -121.9700,
    "wdfwCRCCode": "872",
    "description": "North Fork Stilly — winter steelhead run."
  },
  {
    "id": "stillaguamish-south",
    "name": "Stillaguamish River, South Fork",
    "region": "Puget Sound – Stillaguamish System",
    "county": "Snohomish",
    "tributaryOf": "Stillaguamish River",
    "latitude": 48.1600,
    "longitude": -121.9500,
    "wdfwCRCCode": "874",
    "description": "South Fork Stilly with anti-snagging rules Nov-Jan."
  },
  {
    "id": "canyon-creek-stilly",
    "name": "Canyon Creek (Stillaguamish tributary)",
    "region": "Puget Sound – Stillaguamish System",
    "county": "Snohomish",
    "tributaryOf": "Stillaguamish River, South Fork",
    "latitude": 48.0800,
    "longitude": -121.7600,
    "wdfwCRCCode": "866",
    "description": "Small tributary to South Fork Stilly. Winter steelhead Nov-Jan."
  },
  {
    "id": "green-duwamish-river",
    "name": "Green (Duwamish) River",
    "region": "Puget Sound – King County",
    "county": "King",
    "tributaryOf": null,
    "latitude": 47.3600,
    "longitude": -122.2100,
    "wdfwCRCCode": "746",
    "description": "King County river with summer steelhead and coho."
  },
  {
    "id": "puyallup-river",
    "name": "Puyallup River",
    "region": "Puget Sound – Pierce County",
    "county": "Pierce",
    "tributaryOf": null,
    "latitude": 47.1900,
    "longitude": -122.4000,
    "wdfwCRCCode": "804",
    "description": "Coho and steelhead river in Pierce County."
  },
  {
    "id": "sauk-river-south",
    "name": "Sauk River, South Fork",
    "region": "Puget Sound – Skagit System",
    "county": "Snohomish",
    "tributaryOf": "Sauk River",
    "latitude": 48.0300,
    "longitude": -121.5900,
    "wdfwCRCCode": "828",
    "description": "Above Elliot Creek — selective gear rules, catch-and-release summer."
  },
  {
    "id": "pilchuck-river",
    "name": "Pilchuck River",
    "region": "Puget Sound – Snohomish System",
    "county": "Snohomish",
    "tributaryOf": "Snohomish River",
    "latitude": 48.0200,
    "longitude": -121.9600,
    "wdfwCRCCode": "840",
    "description": "Winter steelhead tributary to the Snohomish."
  },
  {
    "id": "dungeness-river",
    "name": "Dungeness River",
    "region": "Puget Sound – Strait of Juan de Fuca",
    "county": "Clallam",
    "tributaryOf": null,
    "latitude": 48.1300,
    "longitude": -123.1200,
    "wdfwCRCCode": "738",
    "description": "Olympic Peninsula river draining to the Strait of Juan de Fuca."
  }
]
